{
  "type": "FeatureCollection",
  "features": [
    {
      "type": "Feature",
      "properties": {
        "name": "George Fisher (Start)",
        "featureType": "start checkpoint",
        "ratify": true
      },
      "geometry": {
        "type": "Point",
        "coordinates": [
          -3.136510,
          54.599183
        ]
      }
    },
    {
      "type": "Feature",
      "properties": {
        "name": "Catbells",
        "featureType": "summit",
        "ratify": true
      },
      "geometry": {
        "type": "Point",
        "coordinates": [
          -3.1708004,
          54.567750
        ]
      }
    },
    {
      "type": "Feature",
      "properties": {
        "name": "Robinson",
        "featureType": "summit",
        "ratify": true
      },
      "geometry": {
        "type": "Point",
        "coordinates": [
          -3.233976,
          54.541118
        ]
      }
    },
    {
      "type": "Feature",
      "geometry": {
        "type": "Point",
        "coordinates": [
          -3.284307,
          54.521552
        ]
      },
      "properties": {
        "name": "High Stile",
        "featureType": "summit",
        "notes": "",
        "ratify": true
      }
    },
    {
      "type": "Feature",
      "properties": {
        "name": "Rowling End",
        "featureType": "summit",
        "ratify": true
      },
      "geometry": {
        "type": "Point",
        "coordinates": [
          -3.193768,
          54.575647
        ]
      }
    },
    {
      "type": "Feature",
      "properties": {
        "name": "Causey Pike",
        "featureType": "summit",
        "ratify": true
      },
      "geometry": {
        "type": "Point",
        "coordinates": [
          -3.210235,
          54.576843
        ]
      }
    },
    {
      "type": "Feature",
      "properties": {
        "name": "Sail",
        "featureType": "summit",
        "ratify": true
      },
      "geometry": {
        "type": "Point",
        "coordinates": [
          -3.242049,
          54.571243
        ]
      }
    },
    {
      "type": "Feature",
      "properties": {
        "name": "Eel Crag",
        "featureType": "summit",
        "ratify": true
      },
      "geometry": {
        "type": "Point",
        "coordinates": [
          -3.250364,
          54.572049
        ]
      }
    },
    {
      "type": "Feature",
      "properties": {
        "name": "Grisedale Pike",
        "featureType": "summit",
        "ratify": true
      },
      "geometry": {
        "type": "Point",
        "coordinates": [
          -3.242005,
          54.591697
        ]
      }
    },
    {
      "type": "Feature",
      "properties": {
        "name": "Hobcarton",
        "featureType": "summit",
        "ratify": true
      },
      "geometry": {
        "type": "Point",
        "coordinates": [
          -3.249288,
          54.587088
        ]
      }
    },
    {
      "type": "Feature",
      "properties": {
        "name": "George Fisher (Finish)",
        "featureType": "finish checkpoint",
        "ratify": true
      },
      "geometry": {
        "type": "Point",
        "coordinates": [
          -3.136510,
          54.599183
        ]
      }
    }
  ]
}